place_id,place_name,comm_score,cover_image_url,location,tag_list,coordinate_type,latitude,longitude,address,description
99588817,Daerim Central Market,5.0,https://ak-d.tripcdn.com/images/fd/tg/g2/M07/C4/B1/CghzgVW7IAiANe2RAABDVNaG3tM088.jpg,Seoul,"['Markets', 'Featured Neighborhoods']",GCJ02,37.491569,126.899931,"21 Digital-ro 37na-gil, Daerim 2(i)-dong, Yeongdeungpo-gu, Seoul, South Korea",No Description
20905757,Cube Entertainment,4.2,https://ak-d.tripcdn.com/images/100n1f000001gpc0gFC91.jpg,Seoul,['Modern Architecture'],GCJ02,37.545639,127.053458,"83 Achasan-ro, Seongsu-dong 2(i)-ga, Seongdong-gu, Seoul, South Korea","Cube Entertainment is an entertainment company established by Hong Shengcheng, the former president of JYP. The company is located in Cheongdam-dong, Gangnam District, not far from JYP. Now the company's well-known artists include 4Minute and BEAST. It is said that there are often celebrities coming and going here. If you like Hallyu, you can go here to follow Korean stars. The cafe opposite CUBE is a good place to stay, and there are often entertainers who come to have coffee."
146507732,Kwanglim Arts Center BBCH Hall,0.0,https://ak-d.tripcdn.com/images/0102u1200086k28vc0A5C.jpg,Seoul,,GCJ02,37.523887,127.025153,"33 Nonhyeon-ro 163-gil, Gangnam-gu, Seoul, South Korea",No Description
65176748,Gyeongchun Line Forest Trail,5.0,https://ak-d.tripcdn.com/images/0101y1200098xbfzrA930.png,Seoul,"['City Parks', 'Theme Parks']",GCJ02,37.619746,127.081482,"121 Nowon-ro 1-gil, Nowon-gu, Seoul, South Korea",No Description
81858,Gyeonghuigung Palace,4.3,https://ak-d.tripcdn.com/images/100v0d0000006tjxzAD72.jpg,Seoul,"['Historical Sites', 'Historical Architectures']",GCJ02,37.571238,126.968169,"45 Saemunan-ro, Sajik-dong, Jongno-gu, Seoul, South Korea","The 400-year-old Gyeonghui Palace was virtually destroyed during the Japanese colonial period, leaving only a few of the original elements. A handful remain, however, and are worth a visit. Highlights include the carvings of dragons' heads, stone stairways, and a beautiful garden surrounding the palace."
